[{"name":"Shanghai","lat":31.2325,"lng":121.469166666,"pop":24870895},{"name":"Beijing","lat":39.90403,"lng":116.407526,"pop":21893095},{"name":"Chengdu","lat":30.66,"lng":104.063333333,"pop":20937757},{"name":"Guangzhou","lat":23.13,"lng":113.26,"pop":18676605},{"name":"Shenzhen","lat":22.546666666,"lng":114.054444444,"pop":17494398},{"name":"Dhaka","lat":23.728888888,"lng":90.394444444,"pop":16800000},{"name":"Istanbul","lat":41.01,"lng":28.960277777,"pop":15655924},{"name":"Mumbai","lat":19.075833333,"lng":72.8775,"pop":15414288},{"name":"Lagos","lat":6.456111111,"lng":3.393611111,"pop":15070000},{"name":"Karachi","lat":24.86,"lng":67.01,"pop":14910352},{"name":"Tokyo","lat":35.689444444,"lng":139.691666666,"pop":14264798},{"name":"Ho Chi Minh City","lat":10.775555555,"lng":106.701944444,"pop":14002598},{"name":"Tianjin","lat":39.146666666,"lng":117.205555555,"pop":13866009},{"name":"Moscow","lat":55.750555555,"lng":37.6175,"pop":13274285},{"name":"Xi'an","lat":34.261111111,"lng":108.942222222,"pop":12952907},{"name":"Suzhou","lat":31.3,"lng":120.619444444,"pop":12748262},{"name":"Zhengzhou","lat":34.74919,"lng":113.66051,"pop":12600574},{"name":"Bengaluru","lat":12.9791198,"lng":77.5912997,"pop":12327000},{"name":"Wuhan","lat":30.595,"lng":114.2975,"pop":12326518},{"name":"Hangzhou","lat":30.25,"lng":120.1675,"pop":11936010},{"name":"Baoding","lat":38.86712,"lng":115.48452,"pop":11544036},{"name":"São Paulo","lat":-23.550394444,"lng":-46.633947222,"pop":11451999},{"name":"Lahore","lat":31.549722222,"lng":74.343611111,"pop":11126285},{"name":"Shijiazhuang","lat":38.0425,"lng":114.51,"pop":10640458},{"name":"Dongguan","lat":23.04749,"lng":113.74928,"pop":10466625},{"name":"Qingdao","lat":36.116666666,"lng":120.4,"pop":10071722},{"name":"Changsha","lat":28.19874,"lng":112.97087,"pop":10047914},{"name":"Harbin","lat":45.75,"lng":126.633333333,"pop":10009854},{"name":"Lima","lat":-12.06,"lng":-77.0375,"pop":9943800},{"name":"Cairo","lat":30.044444444,"lng":31.235833333,"pop":9801536},{"name":"Nanyang","lat":32.99871,"lng":112.52921,"pop":9713112},{"name":"Seoul","lat":37.56,"lng":126.99,"pop":9668465},{"name":"Wenzhou","lat":27.999128,"lng":120.656075,"pop":9572903},{"name":"Foshan","lat":23.029167,"lng":113.105556,"pop":9498863},{"name":"Handan","lat":36.61161,"lng":114.48937,"pop":9413990},{"name":"Ningbo","lat":29.875,"lng":121.549166666,"pop":9404283},{"name":"Weifang","lat":36.716666666,"lng":119.1,"pop":9386705},{"name":"Hefei","lat":31.86389,"lng":117.28083,"pop":9369881},{"name":"Nanjing","lat":32.060833333,"lng":118.778888888,"pop":9314685},{"name":"Mexico City","lat":19.353773,"lng":-99.13589,"pop":9209944},{"name":"Jinan","lat":36.666666666,"lng":116.983333333,"pop":9202432},{"name":"Xuzhou","lat":34.26104,"lng":117.18587,"pop":9083790},{"name":"Shenyang","lat":41.8025,"lng":123.428055555,"pop":9070093},{"name":"Changchun","lat":43.88,"lng":125.322777777,"pop":9066906},{"name":"Kuala Lumpur","lat":3.147777777,"lng":101.695277777,"pop":9000280},{"name":"Ganzhou","lat":25.829166666,"lng":114.933611111,"pop":8970014},{"name":"New York City","lat":40.712777777,"lng":-74.006111111,"pop":8804190},{"name":"London","lat":51.507222222,"lng":-0.1275,"pop":8799728},{"name":"Quanzhou","lat":24.91389,"lng":118.58583,"pop":8782285},{"name":"Nanning","lat":22.81918,"lng":108.31501,"pop":8741584},{"name":"Hanoi","lat":21.0245,"lng":105.84117,"pop":8717600},{"name":"Kunming","lat":25.043333333,"lng":102.706111111,"pop":8460088},{"name":"Jining","lat":35.4,"lng":116.566666666,"pop":8357897},{"name":"Fuzhou","lat":26.076944444,"lng":119.291666666,"pop":8291268},{"name":"Fuyang","lat":32.89856,"lng":115.80447,"pop":8200264},{"name":"Baghdad","lat":33.315277777,"lng":44.366111111,"pop":8126755},{"name":"Bogotá","lat":4.60971,"lng":-74.08175,"pop":8034649},{"name":"Shangqiu","lat":34.42592,"lng":115.64673,"pop":7816831},{"name":"Nantong","lat":31.98288,"lng":120.8873,"pop":7726635},{"name":"Tangshan","lat":39.629444444,"lng":118.173888888,"pop":7717983},{"name":"Ahmedabad","lat":23.021944444,"lng":72.579722222,"pop":7645000},{"name":"Wuxi","lat":31.566667,"lng":120.283333,"pop":7462135},{"name":"Dalian","lat":38.9,"lng":121.6,"pop":7450785},{"name":"Hong Kong","lat":22.278333333,"lng":114.158611111,"pop":7413070},{"name":"Cangzhou","lat":38.30369,"lng":116.84519,"pop":7300783},{"name":"Yantai","lat":37.464444444,"lng":121.447777777,"pop":7102116},{"name":"Luoyang","lat":34.65867,"lng":112.42447,"pop":7056699},{"name":"Jinhua","lat":29.10462,"lng":119.64937,"pop":7050683},{"name":"Riyadh","lat":24.65,"lng":46.71,"pop":7009100},{"name":"Zhanjiang","lat":21.196667,"lng":110.403056,"pop":6981236},{"name":"Bijie","lat":27.30193,"lng":105.28627,"pop":6899636},{"name":"Yangon","lat":16.795,"lng":96.16,"pop":6874000},{"name":"Yancheng","lat":33.35,"lng":120.156944444,"pop":6709629},{"name":"Hengyang","lat":26.89676,"lng":112.58568,"pop":6645243},{"name":"Taizhou","lat":28.6583,"lng":121.42213,"pop":6622888},{"name":"Zunyi","lat":27.70498,"lng":106.93363,"pop":6606675},{"name":"Chennai","lat":13.0825,"lng":80.275,"pop":6599000},{"name":"Shaoyang","lat":27.24176,"lng":111.47247,"pop":6563520},{"name":"Huanggang","lat":30.45,"lng":114.875,"pop":6333000},{"name":"Maoming","lat":21.66182,"lng":110.91783,"pop":6313200},{"name":"Santiago","lat":-33.4375,"lng":-70.65,"pop":6257516},{"name":"Nanchang","lat":28.684167,"lng":115.887222,"pop":6255007},{"name":"Xinxiang","lat":35.29917,"lng":113.88515,"pop":6251929},{"name":"Xinyang","lat":32.12641,"lng":114.06722,"pop":6234401},{"name":"Rio de Janeiro","lat":-22.911111111,"lng":-43.205555555,"pop":6211223},{"name":"Huizhou","lat":23.11147,"lng":114.41523,"pop":6042852},{"name":"Guiyang","lat":26.579444444,"lng":106.707777777,"pop":5987018},{"name":"Prayagraj","lat":25.45,"lng":81.85,"pop":5954391},{"name":"Liaocheng","lat":36.45,"lng":115.983333333,"pop":5952128},{"name":"Pune","lat":18.521111111,"lng":73.855277777,"pop":5945000},{"name":"Surat","lat":21.205,"lng":72.84,"pop":5935000},{"name":"Singapore","lat":1.3,"lng":103.8,"pop":5866139},{"name":"Yulin","lat":22.6293,"lng":110.15067,"pop":5849700},{"name":"Changde","lat":29.03966,"lng":111.6839,"pop":5827200},{"name":"Ankara","lat":39.93576,"lng":32.83869,"pop":5803482},{"name":"Yueyang","lat":29.36472,"lng":113.1309,"pop":5797100},{"name":"Qujing","lat":25.51018,"lng":103.80287,"pop":5765775},{"name":"Addis Ababa","lat":9.027222222,"lng":38.736944444,"pop":5704000},{"name":"Xiangyang","lat":32.06536,"lng":112.15307,"pop":5680000},{"name":"Bangkok","lat":13.75,"lng":100.516666666,"pop":5676648},{"name":"Saint Petersburg","lat":59.95,"lng":30.316666666,"pop":5652922},{"name":"Abidjan","lat":5.336388888,"lng":-4.026666666,"pop":5616633},{"name":"Dezhou","lat":37.45127,"lng":116.31046,"pop":5611194},{"name":"Nanchong","lat":30.79913,"lng":106.07843,"pop":5607565},{"name":"Jieyang","lat":23.55334,"lng":116.36495,"pop":5577814},{"name":"Jingzhou","lat":30.324444444,"lng":112.236111111,"pop":5570100},{"name":"Nairobi","lat":-1.286388888,"lng":36.817222222,"pop":5545000},{"name":"Shantou","lat":23.353888888,"lng":116.682222222,"pop":5502031},{"name":"Anyang","lat":36.09561,"lng":114.34614,"pop":5477614},{"name":"Tai'an","lat":36.2001,"lng":117.0809,"pop":5472217},{"name":"Dazhou","lat":31.2152,"lng":107.49472,"pop":5468097},{"name":"Langfang","lat":39.51962,"lng":116.70056,"pop":5464087},{"name":"Sydney","lat":-33.867777777,"lng":151.21,"pop":5450496},{"name":"Suihua","lat":46.6384,"lng":126.98079,"pop":5418153},{"name":"Jiaxing","lat":30.7522,"lng":120.75,"pop":5400868},{"name":"Qiqihar","lat":47.33981,"lng":123.95124,"pop":5367003},{"name":"Alexandria","lat":31.1975,"lng":29.8925,"pop":5362517},{"name":"Melbourne","lat":-37.814166666,"lng":144.963055555,"pop":5350705},{"name":"Khartoum","lat":15.60308,"lng":32.52654,"pop":5345000},{"name":"Kabul","lat":34.532777777,"lng":69.165833333,"pop":5333284},{"name":"Taiyuan","lat":37.87326,"lng":112.54245,"pop":5304061},{"name":"Yongzhou","lat":26.4515,"lng":111.59527,"pop":5289824},{"name":"Changzhou","lat":31.812166666,"lng":119.969166666,"pop":5278121},{"name":"Shaoxing","lat":30,"lng":120.583333333,"pop":5270977},{"name":"Xiamen","lat":24.479722222,"lng":118.081944444,"pop":5163970},{"name":"Zhaotong","lat":27.33284,"lng":103.71445,"pop":5092611},{"name":"Guilin","lat":25.266666666,"lng":110.283333333,"pop":5085500},{"name":"Zhangzhou","lat":24.50932,"lng":117.66117,"pop":5054328},{"name":"Pingdingshan","lat":33.73499,"lng":113.29992,"pop":4987137},{"name":"Suqian","lat":33.933056,"lng":118.283056,"pop":4986192},{"name":"Huaihua","lat":27.549444,"lng":109.959167,"pop":4979600},{"name":"Xiaogan","lat":30.92731,"lng":113.91096,"pop":4921000},{"name":"Jiujiang","lat":29.70475,"lng":116.00206,"pop":4896800},{"name":"Yibin","lat":28.75961,"lng":104.63997,"pop":4887242},{"name":"Mianyang","lat":31.46688,"lng":104.73847,"pop":4868243},{"name":"Kaifeng","lat":34.795,"lng":114.345,"pop":4824016},{"name":"Johannesburg","lat":-26.204361111,"lng":28.041638888,"pop":4803262},{"name":"Jiangmen","lat":22.58333,"lng":113.08333,"pop":4798090},{"name":"Chenzhou","lat":25.79893,"lng":113.02667,"pop":4744500},{"name":"Dar es Salaam","lat":-6.816111111,"lng":39.280277777,"pop":4715000},{"name":"Zibo","lat":36.783056,"lng":118.049722,"pop":4704138},{"name":"Jeddah","lat":21.542777777,"lng":39.172777777,"pop":4697000},{"name":"Weinan","lat":34.49962,"lng":109.46838,"pop":4688744},{"name":"Lianyungang","lat":34.59057,"lng":119.1801,"pop":4599360},{"name":"Kanpur","lat":26.4725,"lng":80.331111111,"pop":4581268},{"name":"Yangzhou","lat":32.39117,"lng":119.43625,"pop":4559797},{"name":"Huai'an","lat":33.58861,"lng":119.01917,"pop":4556230},{"name":"Hengshui","lat":37.73484,"lng":115.68599,"pop":4472000},{"name":"Giza","lat":29.987,"lng":31.2118,"pop":4458135},{"name":"Zhongshan","lat":22.533333333,"lng":113.35,"pop":4418060},{"name":"Yiyang","lat":28.583333333,"lng":112.333333333,"pop":4413800},{"name":"Jilin City","lat":43.8461,"lng":126.56157,"pop":4413157},{"name":"Guigang","lat":23.114444444,"lng":109.594444444,"pop":4409200},{"name":"Lu'an","lat":31.75425,"lng":116.50778,"pop":4393699},{"name":"Xuchang","lat":34.02444,"lng":113.82014,"pop":4379998},{"name":"Meizhou","lat":24.29977,"lng":116.11913,"pop":4378800},{"name":"Lanzhou","lat":36.06171,"lng":103.83177,"pop":4359446},{"name":"Kano","lat":12,"lng":8.516666666,"pop":4348000},{"name":"Zhangjiakou","lat":40.81078,"lng":114.88114,"pop":4345485},{"name":"Chifeng","lat":42.255,"lng":118.8825,"pop":4341245},{"name":"Bamako","lat":12.645833333,"lng":-7.992222222,"pop":4227569},{"name":"Anqing","lat":30.5,"lng":117.033333333,"pop":4165284},{"name":"Liuzhou","lat":24.3264,"lng":109.4281,"pop":4157934},{"name":"Zhaoqing","lat":23.05,"lng":112.466666666,"pop":4151700},{"name":"Guang'an","lat":30.46729,"lng":106.63358,"pop":4124100},{"name":"Ürümqi","lat":43.8225,"lng":87.6125,"pop":4054369},{"name":"New Taipei","lat":25.0125,"lng":121.465,"pop":4046037},{"name":"Zhuzhou","lat":27.84071,"lng":113.14692,"pop":4020800},{"name":"Yichang","lat":30.708333,"lng":111.280278,"pop":4017607},{"name":"Amman","lat":31.95,"lng":35.933333333,"pop":4007526},{"name":"Chuzhou","lat":32.30621,"lng":118.31148,"pop":3987054},{"name":"Qingyuan","lat":23.68425,"lng":113.05075,"pop":3969473},{"name":"Xianyang","lat":34.329722222,"lng":108.709166666,"pop":3959842},{"name":"Dubai","lat":25.269722222,"lng":55.309444444,"pop":3944751},{"name":"Loudi","lat":27.73776,"lng":111.99742,"pop":3931800},{"name":"Kumasi","lat":6.7,"lng":-1.625,"pop":3903480},{"name":"Los Angeles","lat":34.05223,"lng":-118.24368,"pop":3898747},{"name":"Deyang","lat":31.12892,"lng":104.39499,"pop":3877000},{"name":"Zaozhuang","lat":34.866666666,"lng":117.55,"pop":3855601},{"name":"Berlin","lat":52.516666666,"lng":13.383333333,"pop":3782202},{"name":"Cape Town","lat":-33.925277777,"lng":18.423888888,"pop":3776313},{"name":"Puyang","lat":35.76392,"lng":115.02996,"pop":3772088},{"name":"Neijiang","lat":29.58716,"lng":105.0635,"pop":3702847},{"name":"Wuhu","lat":31.33398,"lng":118.36223,"pop":3644420},{"name":"Jiaozuo","lat":35.22904,"lng":113.2304,"pop":3590700},{"name":"Port Harcourt","lat":4.765466,"lng":7.016316,"pop":3480000},{"name":"Chengde","lat":40.973888888,"lng":117.932222222,"pop":3473201},{"name":"Busan","lat":35.18,"lng":129.075,"pop":3453198},{"name":"Hohhot","lat":40.81507,"lng":111.66293,"pop":3446100},{"name":"Shiyan","lat":32.63507,"lng":110.7755,"pop":3398000},{"name":"Siping","lat":43.17154,"lng":124.36438,"pop":3385156},{"name":"Lucknow","lat":26.847,"lng":80.947,"pop":3382000},{"name":"Jinzhong","lat":37.69332,"lng":112.74164,"pop":3379498},{"name":"Huzhou","lat":30.8925,"lng":120.0875,"pop":3367579},{"name":"Changzhi","lat":36.19529,"lng":113.09695,"pop":3334565},{"name":"Madrid city","lat":40.4165,"lng":-3.70256,"pop":3332035},{"name":"Anshan","lat":41.10662,"lng":122.98945,"pop":3325372},{"name":"Baoji","lat":34.36094,"lng":107.17507,"pop":3321853},{"name":"Datong","lat":40.093611111,"lng":113.291388888,"pop":3318054},{"name":"Qinzhou","lat":21.95,"lng":108.616666666,"pop":3304400},{"name":"Tongren","lat":27.72334,"lng":109.18851,"pop":3298468},{"name":"Bengbu","lat":32.93537,"lng":117.35312,"pop":3296408},{"name":"Bazhong","lat":31.85764,"lng":106.75586,"pop":3283148},{"name":"Suining","lat":30.50984,"lng":105.57373,"pop":3252619},{"name":"Leshan","lat":29.5854,"lng":103.75755,"pop":3235759},{"name":"Casablanca","lat":33.599166666,"lng":-7.62,"pop":3215935},{"name":"Hanzhong","lat":33.07938,"lng":107.02598,"pop":3211462},{"name":"Putian","lat":25.439444,"lng":119.010278,"pop":3210714},{"name":"Zhenjiang","lat":32.21086,"lng":119.45508,"pop":3210418},{"name":"Cần Thơ","lat":10.1547298,"lng":105.5005357,"pop":3207000},{"name":"Faisalabad","lat":31.418,"lng":73.079,"pop":3203846},{"name":"Santa Cruz de la Sierra","lat":-17.789166666,"lng":-63.1975,"pop":3151676},{"name":"Ningde","lat":26.661666666,"lng":119.522777777,"pop":3146789},{"name":"Tongliao","lat":43.61723,"lng":122.26398,"pop":3139153},{"name":"Qinhuangdao","lat":39.93978,"lng":119.58812,"pop":3136879},{"name":"Jinzhou","lat":41.114444444,"lng":121.129166666,"pop":3126463},{"name":"Buenos Aires","lat":-34.599722222,"lng":-58.381944444,"pop":3121707},{"name":"Heyuan","lat":23.75033,"lng":114.69229,"pop":3093900},{"name":"Jaipur","lat":26.915,"lng":75.82,"pop":3073350},{"name":"Wuzhou","lat":23.483333,"lng":111.316667,"pop":3061100},{"name":"Chaoyang","lat":41.57567,"lng":120.44856,"pop":3044641},{"name":"Taichung","lat":24.143888888,"lng":120.679444444,"pop":3033885},{"name":"Huainan","lat":32.483056,"lng":117.016389,"pop":3033528},{"name":"Liupanshui","lat":26.594444,"lng":104.833333,"pop":3031602},{"name":"Shaoguan","lat":24.80113,"lng":113.59271,"pop":2997600},{"name":"Brasília","lat":-15.793888888,"lng":-47.882777777,"pop":2996899},{"name":"Kuwait City","lat":29.375,"lng":47.98,"pop":2989000},{"name":"Tianshui","lat":34.58093,"lng":105.73115,"pop":2984659},{"name":"Rizhao","lat":35.416388888,"lng":119.433055555,"pop":2968365},{"name":"Sanaa","lat":15.35,"lng":44.2,"pop":2957000},{"name":"Tashkent","lat":41.311111111,"lng":69.279722222,"pop":2956384},{"name":"Weihai","lat":37.5,"lng":122.1,"pop":2906548},{"name":"Daqing","lat":46.59791,"lng":125.00798,"pop":2904532},{"name":"Bursa","lat":40.191330555,"lng":29.080538888,"pop":2901396},{"name":"Jingmen","lat":31.038055555,"lng":112.211388888,"pop":2897500},{"name":"Haikou","lat":20.02,"lng":110.32,"pop":2873358},{"name":"Xiangtan","lat":27.84306,"lng":112.92283,"pop":2864800},{"name":"Pyongyang","lat":39.016666666,"lng":125.7475,"pop":2863000},{"name":"Yinchuan","lat":38.485,"lng":106.225,"pop":2859074},{"name":"Da Nang","lat":16.069444444,"lng":108.209722222,"pop":2819900},{"name":"Omdurman","lat":15.683517,"lng":32.462887,"pop":2805396},{"name":"Mudanjiang","lat":44.586111,"lng":129.599722,"pop":2798723},{"name":"Toronto","lat":43.670277777,"lng":-79.386666666,"pop":2794356},{"name":"Douala","lat":4.05,"lng":9.7,"pop":2768436},{"name":"Rome","lat":41.893055555,"lng":12.482777777,"pop":2748109},{"name":"Chicago","lat":41.881944444,"lng":-87.627777777,"pop":2746388},{"name":"Shanwei","lat":22.766389,"lng":115.333056,"pop":2738482},{"name":"Kaohsiung","lat":22.615,"lng":120.2975,"pop":2733964},{"name":"Longyan","lat":25.088056,"lng":117.024444,"pop":2723637},{"name":"Tieling","lat":42.28407,"lng":123.83654,"pop":2717732},{"name":"Baotou","lat":40.65621,"lng":109.83454,"pop":2709378},{"name":"Brisbane","lat":-27.467777777,"lng":153.027777777,"pop":2706966},{"name":"Dingxi","lat":35.580611,"lng":104.626278,"pop":2698624},{"name":"Damascus","lat":33.513055555,"lng":36.291944444,"pop":2685360},{"name":"Nanping","lat":26.64481,"lng":118.17282,"pop":2680645},{"name":"Zigong","lat":29.349842,"lng":104.764514,"pop":2678899},{"name":"Xianning","lat":29.83411,"lng":114.32882,"pop":2658316},{"name":"Chaozhou","lat":23.67,"lng":116.63,"pop":2656600},{"name":"Guayaquil","lat":-2.19,"lng":-79.8875,"pop":2650288},{"name":"Huludao","lat":40.709444444,"lng":120.837777777,"pop":2623541},{"name":"Yangjiang","lat":21.85563,"lng":111.96272,"pop":2602959},{"name":"Ziyang","lat":30.12562,"lng":104.63974,"pop":2593843},{"name":"Chittagong","lat":22.335,"lng":91.8325,"pop":2581643},{"name":"Fortaleza","lat":-3.7275,"lng":-38.5275,"pop":2578483},{"name":"Longnan","lat":33.535,"lng":105.349,"pop":2567718},{"name":"Jiamusi","lat":46.80808,"lng":130.36531,"pop":2552097},{"name":"Ibadan","lat":7.3775,"lng":3.905833333,"pop":2550593},{"name":"Medellín","lat":6.250200154,"lng":-75.5675845,"pop":2529403},{"name":"Havana","lat":23.136666666,"lng":-82.358888888,"pop":2492618},{"name":"Luanda","lat":-8.838333333,"lng":13.234444444,"pop":2487444},{"name":"Sanming","lat":26.2658,"lng":117.63017,"pop":2486450},{"name":"Guangyuan","lat":32.43529,"lng":105.83985,"pop":2484122},{"name":"Huangshi","lat":30.20178,"lng":115.03262,"pop":2471700},{"name":"Cali","lat":3.44,"lng":-76.519722222,"pop":2471474},{"name":"Anshun","lat":26.24562,"lng":105.93401,"pop":2470630},{"name":"Xining","lat":36.62386,"lng":101.77866,"pop":2467965},{"name":"Lusaka","lat":-15.416666666,"lng":28.283333333,"pop":2467563},{"name":"Ouagadougou","lat":12.368611111,"lng":-1.5275,"pop":2453496},{"name":"Dandong","lat":40.116666666,"lng":124.383333333,"pop":2444697},{"name":"Daegu","lat":35.871666666,"lng":128.601666666,"pop":2444412},{"name":"Taipei","lat":25.0375,"lng":121.5625,"pop":2442991},{"name":"Yaoundé","lat":3.857777777,"lng":11.518055555,"pop":2440462},{"name":"Zhuhai","lat":22.274166666,"lng":113.571944444,"pop":2439585},{"name":"Baoshan","lat":25.12105,"lng":99.16905,"pop":2431211},{"name":"Yingkou","lat":40.66525,"lng":122.22972,"pop":2428534},{"name":"Antalya","lat":36.90812,"lng":30.69556,"pop":2426356},{"name":"Beirut","lat":33.886944444,"lng":35.513055555,"pop":2421354},{"name":"Nagpur","lat":21.149722222,"lng":79.080555555,"pop":2405665},{"name":"Pu'er City","lat":22.78028,"lng":100.96981,"pop":2404954},{"name":"Yunfu","lat":22.92423,"lng":112.03526,"pop":2383350},{"name":"Ghaziabad","lat":28.666666666,"lng":77.416666666,"pop":2375820},{"name":"Luohe","lat":33.58299,"lng":114.0109,"pop":2367490},{"name":"Algiers","lat":36.776388888,"lng":3.058611111,"pop":2364230},{"name":"Taoyuan","lat":24.991278,"lng":121.314328,"pop":2352683},{"name":"Belo Horizonte","lat":-19.928055555,"lng":-43.941944444,"pop":2315560},{"name":"Houston","lat":29.762777777,"lng":-95.383055555,"pop":2304580},{"name":"Manaus","lat":-3.118888888,"lng":-60.021666666,"pop":2303732},{"name":"Yan'an","lat":36.59523,"lng":109.48628,"pop":2282581},{"name":"Quzhou","lat":28.95445,"lng":118.8763,"pop":2276184},{"name":"Lincang","lat":23.88643,"lng":100.0871,"pop":2257991},{"name":"Caracas","lat":10.506111111,"lng":-66.914444444,"pop":2245744},{"name":"Konya","lat":37.872769444,"lng":32.492138888,"pop":2232374},{"name":"Almaty","lat":43.24,"lng":76.915,"pop":2228675},{"name":"Qingyang","lat":35.727777777,"lng":107.64,"pop":2211191},{"name":"Santo Domingo","lat":18.4625,"lng":-69.936111111,"pop":2201941},{"name":"Jincheng","lat":35.49056,"lng":112.8483,"pop":2194545},{"name":"Dongying","lat":37.45,"lng":118.466666666,"pop":2193518},{"name":"Lomé","lat":6.13,"lng":1.215833333,"pop":2188376},{"name":"Ma'anshan","lat":31.713531,"lng":118.360472,"pop":2159930},{"name":"Harare","lat":-17.829166666,"lng":31.052222222,"pop":2150000},{"name":"Brazzaville","lat":-4.269444444,"lng":15.271111111,"pop":2145783},{"name":"Perth","lat":-31.955833333,"lng":115.859722222,"pop":2141834},{"name":"Phnom Penh","lat":11.569583333,"lng":104.921027777,"pop":2129371},{"name":"Haiphong","lat":20.8,"lng":106.666666666,"pop":2124500},{"name":"Mogadishu","lat":2.039166666,"lng":45.341944444,"pop":2120000},{"name":"Rawalpindi","lat":33.6007,"lng":73.0679,"pop":2098231},{"name":"Pingliang","lat":35.54123,"lng":106.68192,"pop":2068033},{"name":"Vadodara","lat":22.3,"lng":73.2,"pop":2065771},{"name":"Rajkot","lat":22.291666666,"lng":70.793333333,"pop":2043000},{"name":"Shangluo","lat":33.86805,"lng":109.92445,"pop":2041231},{"name":"Sanmenxia","lat":34.77362,"lng":111.19497,"pop":2034872},{"name":"Gujranwala","lat":32.15,"lng":74.183333333,"pop":2027001},{"name":"Aleppo","lat":36.2,"lng":37.16,"pop":2003671},{"name":"Minsk","lat":53.902246,"lng":27.561837,"pop":1995091},{"name":"Indore","lat":22.718611111,"lng":75.855,"pop":1994397},{"name":"Şanlıurfa","lat":37.158333333,"lng":38.791666666,"pop":1985753},{"name":"Kananga","lat":-5.896111111,"lng":22.416666666,"pop":1971704},{"name":"Huaibei","lat":33.95618,"lng":116.78904,"pop":1970265},{"name":"Peshawar","lat":34.014444444,"lng":71.5675,"pop":1970042},{"name":"Tijuana","lat":32.536447,"lng":-117.037155,"pop":1964788},{"name":"Isfahan","lat":32.6525,"lng":51.675,"pop":1961260},{"name":"Sapporo","lat":43.061944444,"lng":141.354444444,"pop":1959313},{"name":"Pingxiang","lat":27.633333333,"lng":113.85,"pop":1933200},{"name":"Irbid","lat":32.555555555,"lng":35.85,"pop":1911600},{"name":"Hamburg","lat":53.55,"lng":10,"pop":1910160},{"name":"Manila","lat":14.595833333,"lng":120.977222222,"pop":1902590},{"name":"Thane","lat":19.18,"lng":72.963333333,"pop":1886941},{"name":"Tainan","lat":22.99,"lng":120.185,"pop":1874686},{"name":"Multan","lat":30.197777777,"lng":71.471111111,"pop":1871843},{"name":"Warsaw","lat":52.23,"lng":21.011111111,"pop":1862402},{"name":"Jixi","lat":45.29366,"lng":130.96496,"pop":1862165},{"name":"Fushun","lat":41.87085,"lng":123.89173,"pop":1861372},{"name":"Liaoyang","lat":41.26432,"lng":123.1772,"pop":1858768},{"name":"Beihai","lat":21.466666666,"lng":109.1,"pop":1853227},{"name":"Fuxin","lat":42.012669,"lng":121.648553,"pop":1819339},{"name":"Wuwei","lat":37.92781,"lng":102.63286,"pop":1815059},{"name":"Bhopal","lat":23.25,"lng":77.416666666,"pop":1798218},{"name":"Mosul","lat":36.366666666,"lng":43.116666666,"pop":1792000},{"name":"Lubumbashi","lat":-11.664166666,"lng":27.482777777,"pop":1786397},{"name":"Accra","lat":5.55602,"lng":-0.1969,"pop":1782150},{"name":"Benin City","lat":6.3176,"lng":5.6145,"pop":1780000},{"name":"Curitiba","lat":-25.429722222,"lng":-49.271944444,"pop":1773718},{"name":"Adana","lat":37.00262,"lng":35.31346,"pop":1765981},{"name":"Quito","lat":-0.22,"lng":-78.5125,"pop":1763275},{"name":"Garoua","lat":9.3,"lng":13.4,"pop":1750000},{"name":"Kigali","lat":-1.9525,"lng":30.115,"pop":1745555},{"name":"Hyderabad","lat":25.379166666,"lng":68.368333333,"pop":1732693},{"name":"Diyarbakır","lat":37.910833333,"lng":40.236666666,"pop":1732396},{"name":"Barcelona","lat":41.3825,"lng":2.176944444,"pop":1731649},{"name":"Bucharest","lat":44.413361111,"lng":26.097777777,"pop":1716961},{"name":"Shuozhou","lat":39.34078,"lng":112.42923,"pop":1714857},{"name":"Benxi","lat":41.29204,"lng":123.76097,"pop":1709538},{"name":"Baiyin","lat":36.5448,"lng":104.1766,"pop":1708751},{"name":"Abuja","lat":9.055555555,"lng":7.491388888,"pop":1693400},{"name":"Patna","lat":25.61,"lng":85.141388888,"pop":1684222},{"name":"Gaziantep","lat":37.062777777,"lng":37.379166666,"pop":1680723},{"name":"Kampala","lat":0.313611111,"lng":32.581111111,"pop":1680600},{"name":"Heihe","lat":50.245833,"lng":127.488611,"pop":1673899},{"name":"Jingdezhen","lat":29.294167,"lng":117.203611,"pop":1673200},{"name":"Conakry","lat":9.509166666,"lng":-13.712222222,"pop":1667864},{"name":"Masvingo","lat":-20.074444444,"lng":30.832777777,"pop":1638528},{"name":"Novosibirsk","lat":55.033333333,"lng":82.916666666,"pop":1637266},{"name":"Ludhiana","lat":30.908333333,"lng":75.848611111,"pop":1618879},{"name":"Phoenix","lat":33.448333333,"lng":-112.073888888,"pop":1608139},{"name":"Fukuoka","lat":33.59,"lng":130.401666666,"pop":1603043},{"name":"Agra","lat":27.18,"lng":78.02,"pop":1585705},{"name":"León de Los Aldama","lat":21.121944444,"lng":-101.683333333,"pop":1579803},{"name":"Meerut","lat":28.98,"lng":77.706388888,"pop":1571434},{"name":"Abu Dhabi","lat":24.451111111,"lng":54.396944444,"pop":1570000},{"name":"Hebi","lat":35.74975,"lng":114.2887,"pop":1569208},{"name":"Madurai","lat":9.919661111,"lng":78.119394444,"pop":1561129},{"name":"Jamshedpur","lat":22.8,"lng":86.183333333,"pop":1558000},{"name":"Maracaibo","lat":10.633333333,"lng":-71.633333333,"pop":1551539},{"name":"Panama City","lat":8.971111111,"lng":-79.534722222,"pop":1540000},{"name":"Zhangjiajie","lat":29.12548,"lng":110.48442,"pop":1537900},{"name":"Kobe","lat":34.690166666,"lng":135.195444444,"pop":1521707},{"name":"Rui'an","lat":27.778,"lng":120.65263,"pop":1520386},{"name":"Guiping","lat":23.4,"lng":110.083333333,"pop":1511011},{"name":"Munich","lat":48.1375,"lng":11.575,"pop":1510378},{"name":"Ya'an","lat":29.9888,"lng":103.00074,"pop":1507258},{"name":"New Cairo","lat":30.03,"lng":31.47,"pop":1500000},{"name":"Niamey","lat":13.515,"lng":2.1175,"pop":1496260},{"name":"Gwangju","lat":35.166666666,"lng":126.916666666,"pop":1490092},{"name":"Recife","lat":-8.053888888,"lng":-34.880833333,"pop":1488920},{"name":"Nashik","lat":20,"lng":73.783333333,"pop":1486053},{"name":"Valencia","lat":10.166666666,"lng":-68,"pop":1484430},{"name":"Onitsha","lat":6.166666666,"lng":6.783333333,"pop":1483000},{"name":"Daejeon","lat":36.35,"lng":127.385,"pop":1475221},{"name":"Auckland","lat":-36.849166666,"lng":174.765277777,"pop":1470100},{"name":"Yekaterinburg","lat":56.835555555,"lng":60.612777777,"pop":1468833},{"name":"Kyoto","lat":35.011611111,"lng":135.768111111,"pop":1463723},{"name":"Shuangyashan","lat":46.63883,"lng":131.15452,"pop":1462626},{"name":"Yueqing","lat":28.11883,"lng":120.96211,"pop":1452707},{"name":"Nouakchott","lat":18.08581,"lng":-15.9785,"pop":1446761},{"name":"Dakar","lat":14.672555555,"lng":-17.432,"pop":1438725},{"name":"Goiânia","lat":-16.680555555,"lng":-49.256388888,"pop":1437366},{"name":"San Antonio","lat":29.425,"lng":-98.493888888,"pop":1434625},{"name":"Guyuan","lat":36.00801,"lng":106.27816,"pop":1426000},{"name":"Muscat","lat":23.613888888,"lng":58.592222222,"pop":1421409},{"name":"Pointe-Noire","lat":-4.7975,"lng":11.850277777,"pop":1420612},{"name":"Wenling","lat":28.37974,"lng":121.37179,"pop":1416199},{"name":"Medina","lat":24.47,"lng":39.61,"pop":1411599},{"name":"Faridabad","lat":28.41124,"lng":77.31316,"pop":1404653},{"name":"Prague","lat":50.0875,"lng":14.421388888,"pop":1397880},{"name":"Ulaanbaatar","lat":47.921357,"lng":106.905515,"pop":1396288},{"name":"Panjin","lat":41.11983,"lng":122.06339,"pop":1392493},{"name":"Kayseri","lat":38.7225,"lng":35.4875,"pop":1389680},{"name":"Porto Alegre","lat":-30.032777777,"lng":-51.23,"pop":1388794},{"name":"Adelaide","lat":-34.9275,"lng":138.6,"pop":1387290},{"name":"San Diego","lat":32.715,"lng":-117.1625,"pop":1386932},{"name":"Guadalajara","lat":20.676388888,"lng":-103.342222222,"pop":1385621},{"name":"Wuzhong","lat":37.98742,"lng":106.19189,"pop":1382713},{"name":"Samsun","lat":41.286666666,"lng":36.33,"pop":1368488},{"name":"Kisangani","lat":0.515277777,"lng":25.191111111,"pop":1366000},{"name":"Milan","lat":45.466944444,"lng":9.19,"pop":1354196},{"name":"Santiago de los Caballeros","lat":19.45,"lng":-70.7,"pop":1343423},{"name":"Huangshan","lat":29.71318,"lng":118.31506,"pop":1330565},{"name":"Kazan","lat":55.790833333,"lng":49.114444444,"pop":1329825},{"name":"Barranquilla","lat":10.983333333,"lng":-74.801944444,"pop":1326588},{"name":"Basra","lat":30.515,"lng":47.81,"pop":1326564},{"name":"Saitama","lat":35.861388888,"lng":139.645555555,"pop":1325843},{"name":"Guarulhos","lat":-23.466666666,"lng":-46.533333333,"pop":1324781},{"name":"Ciudad Juárez","lat":31.6685,"lng":-106.42,"pop":1321004},{"name":"Yangquan","lat":37.8576,"lng":113.57623,"pop":1318505},{"name":"Tongling","lat":30.945555555,"lng":117.811388888,"pop":1311726},{"name":"Calgary","lat":51.05,"lng":-114.066666666,"pop":1306784},{"name":"Dallas","lat":32.779166666,"lng":-96.808888888,"pop":1304379},{"name":"Belém","lat":-1.455833333,"lng":-48.503888888,"pop":1303403},{"name":"Montevideo","lat":-34.905916666,"lng":-56.191311111,"pop":1302954},{"name":"Nova Iguaçu","lat":-22.758888888,"lng":-43.450833333,"pop":1297704},{"name":"Tripoli","lat":32.87519,"lng":13.18746,"pop":1293016},{"name":"East Berlin","lat":52.518611111,"lng":13.404444444,"pop":1279212},{"name":"Tangier","lat":35.776666666,"lng":-5.803888888,"pop":1275428},{"name":"Antananarivo","lat":-18.91,"lng":47.525,"pop":1275207},{"name":"Soweto","lat":-26.267777777,"lng":27.858611111,"pop":1271628},{"name":"Jabalpur","lat":23.166666666,"lng":79.933333333,"pop":1267564},{"name":"Zapopan","lat":20.720833333,"lng":-103.391111111,"pop":1257547},{"name":"Brussels-Capital Region","lat":50.846666666,"lng":4.3525,"pop":1255795},{"name":"Yuyao City","lat":30.037195,"lng":121.15463,"pop":1254032},{"name":"Lijiang","lat":26.880833333,"lng":100.220833333,"pop":1253878},{"name":"Balıkesir","lat":39.651111111,"lng":27.884166666,"pop":1250610},{"name":"Sharjah","lat":25.3375,"lng":55.411944444,"pop":1247749},{"name":"Huế","lat":16.463888888,"lng":107.586666666,"pop":1236393},{"name":"Suwon","lat":37.285833333,"lng":127.01,"pop":1234300},{"name":"Hargeisa","lat":9.565556,"lng":44.060556,"pop":1227620},{"name":"Mandalay","lat":21.97473,"lng":96.08359,"pop":1225546},{"name":"Vasai-Virar","lat":19.47,"lng":72.8,"pop":1222390},{"name":"Panzhihua","lat":26.58487,"lng":101.71487,"pop":1214121},{"name":"Campinas","lat":-22.900913888,"lng":-47.057294444,"pop":1213792},{"name":"Beiliu","lat":22.7,"lng":110.35,"pop":1211637},{"name":"Mombasa","lat":-4.05,"lng":39.666666666,"pop":1208333},{"name":"Xinyu","lat":27.795,"lng":114.924167,"pop":1202499},{"name":"Zhangye","lat":38.93545,"lng":100.45529,"pop":1199515},{"name":"Varanasi","lat":25.318888888,"lng":83.012777777,"pop":1198491},{"name":"Nizhny Novgorod","lat":56.326944444,"lng":44.0075,"pop":1198245},{"name":"Hiroshima","lat":34.38525,"lng":132.455305555,"pop":1198021},{"name":"Chiang Mai","lat":18.788888888,"lng":98.983333333,"pop":1198000},{"name":"Belgrade","lat":44.817777777,"lng":20.456944444,"pop":1197714},{"name":"Maiduguri","lat":11.833333333,"lng":13.15,"pop":1197497},{"name":"Rosario","lat":-32.9575,"lng":-60.639444444,"pop":1193605},{"name":"Shymkent","lat":42.3,"lng":69.6,"pop":1191877},{"name":"Bishkek","lat":42.866666666,"lng":74.566666666,"pop":1191000},{"name":"Ahvaz","lat":31.318888888,"lng":48.684166666,"pop":1184788},{"name":"Srinagar","lat":34.091111111,"lng":74.806111111,"pop":1180570},{"name":"Chelyabinsk","lat":55.15,"lng":61.4,"pop":1176770},{"name":"Aurangabad","lat":19.88,"lng":75.32,"pop":1175116},{"name":"Yingtan","lat":28.233333333,"lng":117,"pop":1175000},{"name":"Pikine","lat":14.744,"lng":-17.402055555,"pop":1170791},{"name":"Fez","lat":34.043333333,"lng":-5.003333333,"pop":1167842},{"name":"Naypyidaw","lat":19.7475,"lng":96.115,"pop":1160242},{"name":"Aba","lat":5.116666666,"lng":7.366666666,"pop":1160000},{"name":"Zhoushan","lat":29.98869,"lng":122.20488,"pop":1157817},{"name":"Krasnodar","lat":45.033333333,"lng":38.983333333,"pop":1154885},{"name":"Aden","lat":12.8,"lng":45.033333333,"pop":1154410},{"name":"Samara","lat":53.183333333,"lng":50.116666666,"pop":1154223},{"name":"Leiyang","lat":26.4179,"lng":112.8457,"pop":1151554},{"name":"Yichun","lat":47.72347,"lng":128.88932,"pop":1148126},{"name":"Ufa","lat":54.726111111,"lng":55.9475,"pop":1144809},{"name":"Monterrey","lat":25.684444444,"lng":-100.318055555,"pop":1142952},{"name":"Birmingham","lat":52.48,"lng":-1.9025,"pop":1137100},{"name":"Rostov-on-Don","lat":47.2225,"lng":39.71,"pop":1135968},{"name":"Maputo","lat":-25.915277777,"lng":32.576388888,"pop":1133200},{"name":"Amritsar","lat":31.626917,"lng":74.87704,"pop":1132383},{"name":"Van","lat":38.501944444,"lng":43.416666666,"pop":1127612},{"name":"Ulsan","lat":35.55,"lng":129.316666666,"pop":1127553},{"name":"Navi Mumbai","lat":19.03,"lng":73.01,"pop":1119477},{"name":"Tbilisi","lat":41.7225,"lng":44.7925,"pop":1118035},{"name":"Guwahati","lat":26.1805876,"lng":91.750238,"pop":1116267},{"name":"Yerevan","lat":40.181388888,"lng":44.514444444,"pop":1106300},{"name":"Biên Hòa","lat":10.950764,"lng":106.822136,"pop":1104000},{"name":"Maracay","lat":10.246944444,"lng":-67.595833333,"pop":1102088},{"name":"Omsk","lat":54.966666666,"lng":73.383333333,"pop":1101367},{"name":"Jiuquan","lat":39.73695,"lng":98.50489,"pop":1095947},{"name":"Krasnoyarsk","lat":56.008888888,"lng":92.871944444,"pop":1092851},{"name":"N'Djamena","lat":12.11,"lng":15.05,"pop":1092066},{"name":"Cologne","lat":50.942222222,"lng":6.957777777,"pop":1087353},{"name":"Ezhou","lat":30.39724,"lng":114.88418,"pop":1079353},{"name":"Astana","lat":51.133333333,"lng":71.433333333,"pop":1078362},{"name":"Howrah","lat":22.58,"lng":88.329444444,"pop":1077075},{"name":"Ranchi","lat":23.355555555,"lng":85.334722222,"pop":1073440},{"name":"Gwalior","lat":26.2125,"lng":78.1775,"pop":1069276},{"name":"Zhongwei","lat":37.51386,"lng":105.18838,"pop":1067336},{"name":"Goyang","lat":37.656388888,"lng":126.835,"pop":1061929},{"name":"Barquisimeto","lat":10.067777777,"lng":-69.346694444,"pop":1059092},{"name":"Hegang","lat":47.313889,"lng":130.2775,"pop":1058665},{"name":"Tegucigalpa","lat":14.105783333,"lng":-87.204705555,"pop":1055729},{"name":"Chandigarh","lat":30.736388888,"lng":76.788333333,"pop":1055450},{"name":"Vijayawada","lat":16.516666666,"lng":80.616666666,"pop":1048240},{"name":"Fangchenggang","lat":21.6,"lng":108.3,"pop":1046068},{"name":"Voronezh","lat":51.671666666,"lng":39.210555555,"pop":1041722},{"name":"Mersin","lat":36.8,"lng":34.616666666,"pop":1040507},{"name":"São Luís","lat":-2.53,"lng":-44.302777777,"pop":1037775},{"name":"Jodhpur","lat":26.294444444,"lng":73.027777777,"pop":1033918},{"name":"Matola","lat":-25.966666666,"lng":32.466666666,"pop":1032197},{"name":"Ogbomosho","lat":8.133333333,"lng":4.25,"pop":1032000},{"name":"Ashgabat","lat":37.95,"lng":58.383333333,"pop":1030063},{"name":"Enugu","lat":6.440277777,"lng":7.494166666,"pop":1029400},{"name":"Denizli","lat":37.783333333,"lng":29.096388888,"pop":1027782},{"name":"Perm","lat":58.013888888,"lng":56.248888888,"pop":1027518},{"name":"Shobra Elkhema","lat":30.128611111,"lng":31.242222222,"pop":1025569},{"name":"Monrovia","lat":6.310555555,"lng":-10.804722222,"pop":1021762},{"name":"Ottawa","lat":45.424722222,"lng":-75.695,"pop":1017449},{"name":"Islamabad","lat":33.698888888,"lng":73.036944444,"pop":1014825},{"name":"Thủ Đức","lat":10.792402,"lng":106.751784,"pop":1013795},{"name":"San Jose","lat":37.304166666,"lng":-121.872777777,"pop":1013240},{"name":"Volgograd","lat":48.708611111,"lng":44.514722222,"pop":1012219},{"name":"Edmonton","lat":53.533333333,"lng":-113.5,"pop":1010899},{"name":"Raipur","lat":21.2379468,"lng":81.6336833,"pop":1010087},{"name":"Arequipa","lat":-16.398888888,"lng":-71.536944444,"pop":1008290},{"name":"Hwaseong","lat":37.2,"lng":126.766666666,"pop":1004079},{"name":"Marrakesh","lat":31.62947,"lng":-7.98108,"pop":1002697},{"name":"Kota","lat":25.18,"lng":75.83,"pop":1001694},{"name":"Quetta","lat":30.195833333,"lng":67.017222222,"pop":1001205},{"name":"Bareilly","lat":28.364,"lng":79.415,"pop":1000000},{"name":"Guatemala City","lat":14.641666666,"lng":-90.513333333,"pop":994938},{"name":"Xingning","lat":24.168055555,"lng":115.666944444,"pop":993000},{"name":"Lilongwe","lat":-13.96692,"lng":33.78725,"pop":989318},{"name":"Port-au-Prince","lat":18.546944444,"lng":-72.340277777,"pop":987310},{"name":"Stockholm","lat":59.329444444,"lng":18.068611111,"pop":984748},{"name":"Chiba","lat":35.607277777,"lng":140.106361111,"pop":975014},{"name":"Kirkuk","lat":35.466666666,"lng":44.4,"pop":975000},{"name":"Dnipro","lat":48.4675,"lng":35.04,"pop":968502},{"name":"Asmara","lat":15.333333333,"lng":38.916666666,"pop":963000},{"name":"Campo Grande","lat":-20.468611111,"lng":-54.622222222,"pop":962883},{"name":"Austin","lat":30.3,"lng":-97.733333333,"pop":961855},{"name":"Coimbatore","lat":11.000833333,"lng":76.963333333,"pop":959823},{"name":"Danzhou","lat":19.5,"lng":109.583333333,"pop":954259},{"name":"Solapur","lat":17.670277777,"lng":75.901111111,"pop":951558},{"name":"Freetown","lat":8.487222222,"lng":-13.235555555,"pop":951000},{"name":"Jacksonville","lat":30.316666666,"lng":-81.65,"pop":949611},{"name":"Seongnam","lat":37.438611111,"lng":127.137777777,"pop":948757},{"name":"Dushanbe","lat":38.573055555,"lng":68.786388888,"pop":948251},{"name":"Kermanshah","lat":34.316666666,"lng":47.068611111,"pop":946651},{"name":"Salé","lat":34.05,"lng":-6.816667,"pop":945101},{"name":"Kingston","lat":17.971388888,"lng":-76.793055555,"pop":937700},{"name":"Managua","lat":12.154680555,"lng":-86.273725,"pop":937489},{"name":"Jerusalem","lat":31.778888888,"lng":35.225555555,"pop":936425},{"name":"Khartoum North","lat":15.633333333,"lng":32.633333333,"pop":936349},{"name":"Kitakyūshū-shi","lat":33.85181,"lng":130.84659,"pop":935084},{"name":"Aguascalientes City","lat":21.880833333,"lng":-102.296111111,"pop":934424},{"name":"Khulna","lat":22.816666666,"lng":89.55,"pop":928891},{"name":"Chihuahua City","lat":28.636944444,"lng":-106.076944444,"pop":925762},{"name":"Amsterdam","lat":52.366666666,"lng":4.883333333,"pop":921468},{"name":"Qitaihe","lat":45.76802,"lng":131.00635,"pop":920471},{"name":"Trujillo","lat":-8.111944444,"lng":-79.028888888,"pop":919899},{"name":"Fort Worth","lat":32.756388888,"lng":-97.3325,"pop":918915},{"name":"Tiruchirappalli","lat":10.826944444,"lng":78.692777777,"pop":916857},{"name":"Cartagena","lat":10.423611111,"lng":-75.525277777,"pop":914552},{"name":"Naples","lat":40.835833333,"lng":14.248611111,"pop":913462},{"name":"Owerri","lat":5.483333333,"lng":7.033333333,"pop":908109},{"name":"Columbus","lat":39.962222222,"lng":-83.000555555,"pop":905748},{"name":"Bobo-Dioulasso","lat":11.183333333,"lng":-4.283333333,"pop":903887},{"name":"Lubango","lat":-14.916666666,"lng":13.5,"pop":903564},{"name":"Dammam","lat":26.433333333,"lng":50.1,"pop":903312},{"name":"Libreville","lat":0.407777777,"lng":9.440277777,"pop":899000},{"name":"São Gonçalo","lat":-22.826944444,"lng":-43.053888888,"pop":896744},{"name":"Mérida","lat":20.97,"lng":-89.62,"pop":892363},{"name":"Bangui","lat":4.37325,"lng":18.562833333,"pop":889231},{"name":"Abeokuta","lat":7.15,"lng":3.35,"pop":888924},{"name":"Cancun","lat":21.161416111,"lng":-86.824811111,"pop":888797},{"name":"Moradabad","lat":28.843236111,"lng":78.728741666,"pop":887871},{"name":"Indianapolis","lat":39.768611111,"lng":-86.158055555,"pop":887642},{"name":"Duque de Caxias","lat":-22.785833333,"lng":-43.311944444,"pop":886917},{"name":"Marseille","lat":43.296666666,"lng":5.376388888,"pop":886040},{"name":"Tabuk","lat":28.397222222,"lng":36.578888888,"pop":886036},{"name":"Sulaymaniyah","lat":35.55,"lng":45.433333333,"pop":878146},{"name":"Klang","lat":3.033333333,"lng":101.45,"pop":878000},{"name":"Gurgaon","lat":28.466666666,"lng":77.033333333,"pop":876824},{"name":"Charlotte","lat":35.226944444,"lng":-80.843333333,"pop":874579},{"name":"Ramadi","lat":33.425833333,"lng":43.299166666,"pop":874543}]