{
  "fetched_at": "2026-04-09T21:21:53.816Z",
  "source": "UN/LOCODE (curated)",
  "total": 122,
  "ports": [
    {
      "name": "Port of Shanghai",
      "city": "Shanghai",
      "country": "China",
      "iso2": "CN",
      "lat": 31.2304,
      "lng": 121.4737,
      "unlocode": "CNSHA",
      "facilities": "Container, Bulk, Oil",
      "harbor_size": "Large"
    },
    {
      "name": "Port of Singapore",
      "city": "Singapore",
      "country": "Singapore",
      "iso2": "SG",
      "lat": 1.2644,
      "lng": 103.822,
      "unlocode": "SGSIN",
      "facilities": "Container, Bulk, Oil",
      "harbor_size": "Large"
    },
    {
      "name": "Port of Ningbo-Zhoushan",
      "city": "Ningbo",
      "country": "China",
      "iso2": "CN",
      "lat": 29.8683,
      "lng": 121.544,
      "unlocode": "CNNGB",
      "facilities": "Container, Bulk",
      "harbor_size": "Large"
    },
    {
      "name": "Port of Shenzhen",
      "city": "Shenzhen",
      "country": "China",
      "iso2": "CN",
      "lat": 22.5431,
      "lng": 114.0579,
      "unlocode": "CNSZX",
      "facilities": "Container",
      "harbor_size": "Large"
    },
    {
      "name": "Port of Busan",
      "city": "Busan",
      "country": "South Korea",
      "iso2": "KR",
      "lat": 35.1028,
      "lng": 129.0403,
      "unlocode": "KRPUS",
      "facilities": "Container, Bulk",
      "harbor_size": "Large"
    },
    {
      "name": "Port of Hong Kong",
      "city": "Hong Kong",
      "country": "Hong Kong",
      "iso2": "HK",
      "lat": 22.2908,
      "lng": 114.1584,
      "unlocode": "HKHKG",
      "facilities": "Container",
      "harbor_size": "Large"
    },
    {
      "name": "Port of Guangzhou",
      "city": "Guangzhou",
      "country": "China",
      "iso2": "CN",
      "lat": 23.0827,
      "lng": 113.5254,
      "unlocode": "CNGZH",
      "facilities": "Container, Bulk",
      "harbor_size": "Large"
    },
    {
      "name": "Port of Qingdao",
      "city": "Qingdao",
      "country": "China",
      "iso2": "CN",
      "lat": 36.0671,
      "lng": 120.3826,
      "unlocode": "CNTAO",
      "facilities": "Container, Bulk, Oil",
      "harbor_size": "Large"
    },
    {
      "name": "Port of Tianjin",
      "city": "Tianjin",
      "country": "China",
      "iso2": "CN",
      "lat": 38.9833,
      "lng": 117.7333,
      "unlocode": "CNTSN",
      "facilities": "Container, Bulk",
      "harbor_size": "Large"
    },
    {
      "name": "Port of Kaohsiung",
      "city": "Kaohsiung",
      "country": "Taiwan",
      "iso2": "TW",
      "lat": 22.6273,
      "lng": 120.3014,
      "unlocode": "TWKHH",
      "facilities": "Container",
      "harbor_size": "Large"
    },
    {
      "name": "Port of Tokyo",
      "city": "Tokyo",
      "country": "Japan",
      "iso2": "JP",
      "lat": 35.6528,
      "lng": 139.7594,
      "unlocode": "JPTYO",
      "facilities": "Container, Bulk",
      "harbor_size": "Large"
    },
    {
      "name": "Port of Yokohama",
      "city": "Yokohama",
      "country": "Japan",
      "iso2": "JP",
      "lat": 35.4437,
      "lng": 139.638,
      "unlocode": "JPYOK",
      "facilities": "Container",
      "harbor_size": "Large"
    },
    {
      "name": "Port of Kobe",
      "city": "Kobe",
      "country": "Japan",
      "iso2": "JP",
      "lat": 34.6901,
      "lng": 135.1955,
      "unlocode": "JPUKB",
      "facilities": "Container",
      "harbor_size": "Large"
    },
    {
      "name": "Port of Nagoya",
      "city": "Nagoya",
      "country": "Japan",
      "iso2": "JP",
      "lat": 35.0434,
      "lng": 136.6522,
      "unlocode": "JPNGO",
      "facilities": "Container, Auto",
      "harbor_size": "Large"
    },
    {
      "name": "Port of Osaka",
      "city": "Osaka",
      "country": "Japan",
      "iso2": "JP",
      "lat": 34.6654,
      "lng": 135.4319,
      "unlocode": "JPOSA",
      "facilities": "Container",
      "harbor_size": "Medium"
    },
    {
      "name": "Port of Manila",
      "city": "Manila",
      "country": "Philippines",
      "iso2": "PH",
      "lat": 14.5995,
      "lng": 120.9842,
      "unlocode": "PHMNL",
      "facilities": "Container, Bulk",
      "harbor_size": "Large"
    },
    {
      "name": "Port of Tanjung Pelepas",
      "city": "Johor",
      "country": "Malaysia",
      "iso2": "MY",
      "lat": 1.3644,
      "lng": 103.55,
      "unlocode": "MYTPP",
      "facilities": "Container",
      "harbor_size": "Large"
    },
    {
      "name": "Port Klang",
      "city": "Klang",
      "country": "Malaysia",
      "iso2": "MY",
      "lat": 3.0048,
      "lng": 101.3917,
      "unlocode": "MYPKG",
      "facilities": "Container, Bulk",
      "harbor_size": "Large"
    },
    {
      "name": "Port of Laem Chabang",
      "city": "Chonburi",
      "country": "Thailand",
      "iso2": "TH",
      "lat": 13.0827,
      "lng": 100.8833,
      "unlocode": "THLCH",
      "facilities": "Container",
      "harbor_size": "Medium"
    },
    {
      "name": "Port of Jakarta (Tanjung Priok)",
      "city": "Jakarta",
      "country": "Indonesia",
      "iso2": "ID",
      "lat": -6.1056,
      "lng": 106.88,
      "unlocode": "IDJKT",
      "facilities": "Container, Bulk",
      "harbor_size": "Large"
    },
    {
      "name": "Port of Surabaya",
      "city": "Surabaya",
      "country": "Indonesia",
      "iso2": "ID",
      "lat": -7.2091,
      "lng": 112.7397,
      "unlocode": "IDSUB",
      "facilities": "Container, Bulk",
      "harbor_size": "Medium"
    },
    {
      "name": "Port of Ho Chi Minh City",
      "city": "Ho Chi Minh",
      "country": "Vietnam",
      "iso2": "VN",
      "lat": 10.7769,
      "lng": 106.7009,
      "unlocode": "VNSGN",
      "facilities": "Container",
      "harbor_size": "Medium"
    },
    {
      "name": "Port of Hai Phong",
      "city": "Hai Phong",
      "country": "Vietnam",
      "iso2": "VN",
      "lat": 20.8667,
      "lng": 106.6833,
      "unlocode": "VNHPH",
      "facilities": "Container, Bulk",
      "harbor_size": "Medium"
    },
    {
      "name": "Port of Mumbai",
      "city": "Mumbai",
      "country": "India",
      "iso2": "IN",
      "lat": 18.9388,
      "lng": 72.8354,
      "unlocode": "INMUN",
      "facilities": "Container, Bulk, Oil",
      "harbor_size": "Large"
    },
    {
      "name": "Port of Jawaharlal Nehru (Nhava Sheva)",
      "city": "Mumbai",
      "country": "India",
      "iso2": "IN",
      "lat": 18.95,
      "lng": 72.95,
      "unlocode": "INNSA",
      "facilities": "Container",
      "harbor_size": "Large"
    },
    {
      "name": "Port of Chennai",
      "city": "Chennai",
      "country": "India",
      "iso2": "IN",
      "lat": 13.0827,
      "lng": 80.3,
      "unlocode": "INMAA",
      "facilities": "Container, Bulk",
      "harbor_size": "Medium"
    },
    {
      "name": "Port of Colombo",
      "city": "Colombo",
      "country": "Sri Lanka",
      "iso2": "LK",
      "lat": 6.9271,
      "lng": 79.8612,
      "unlocode": "LKCMB",
      "facilities": "Container",
      "harbor_size": "Large"
    },
    {
      "name": "Port of Karachi",
      "city": "Karachi",
      "country": "Pakistan",
      "iso2": "PK",
      "lat": 24.8607,
      "lng": 67.0011,
      "unlocode": "PKKHI",
      "facilities": "Container, Bulk",
      "harbor_size": "Medium"
    },
    {
      "name": "Port of Chittagong",
      "city": "Chittagong",
      "country": "Bangladesh",
      "iso2": "BD",
      "lat": 22.3569,
      "lng": 91.7832,
      "unlocode": "BDCGP",
      "facilities": "Container, Bulk",
      "harbor_size": "Medium"
    },
    {
      "name": "Port of Sydney",
      "city": "Sydney",
      "country": "Australia",
      "iso2": "AU",
      "lat": -33.8688,
      "lng": 151.2093,
      "unlocode": "AUSYD",
      "facilities": "Container, Bulk",
      "harbor_size": "Medium"
    },
    {
      "name": "Port of Melbourne",
      "city": "Melbourne",
      "country": "Australia",
      "iso2": "AU",
      "lat": -37.8136,
      "lng": 144.9631,
      "unlocode": "AUMEL",
      "facilities": "Container, Bulk",
      "harbor_size": "Large"
    },
    {
      "name": "Port of Brisbane",
      "city": "Brisbane",
      "country": "Australia",
      "iso2": "AU",
      "lat": -27.4698,
      "lng": 153.0251,
      "unlocode": "AUBNE",
      "facilities": "Container, Bulk",
      "harbor_size": "Medium"
    },
    {
      "name": "Port of Auckland",
      "city": "Auckland",
      "country": "New Zealand",
      "iso2": "NZ",
      "lat": -36.8485,
      "lng": 174.7633,
      "unlocode": "NZAKL",
      "facilities": "Container",
      "harbor_size": "Medium"
    },
    {
      "name": "Port of Rotterdam",
      "city": "Rotterdam",
      "country": "Netherlands",
      "iso2": "NL",
      "lat": 51.9225,
      "lng": 4.4792,
      "unlocode": "NLRTM",
      "facilities": "Container, Bulk, Oil",
      "harbor_size": "Large"
    },
    {
      "name": "Port of Antwerp-Bruges",
      "city": "Antwerp",
      "country": "Belgium",
      "iso2": "BE",
      "lat": 51.2194,
      "lng": 4.4025,
      "unlocode": "BEANR",
      "facilities": "Container, Bulk, Chemical",
      "harbor_size": "Large"
    },
    {
      "name": "Port of Hamburg",
      "city": "Hamburg",
      "country": "Germany",
      "iso2": "DE",
      "lat": 53.5511,
      "lng": 9.9937,
      "unlocode": "DEHAM",
      "facilities": "Container, Bulk",
      "harbor_size": "Large"
    },
    {
      "name": "Port of Bremen/Bremerhaven",
      "city": "Bremerhaven",
      "country": "Germany",
      "iso2": "DE",
      "lat": 53.5396,
      "lng": 8.5809,
      "unlocode": "DEBRV",
      "facilities": "Container, Auto",
      "harbor_size": "Large"
    },
    {
      "name": "Port of Valencia",
      "city": "Valencia",
      "country": "Spain",
      "iso2": "ES",
      "lat": 39.4699,
      "lng": -0.3763,
      "unlocode": "ESVLC",
      "facilities": "Container",
      "harbor_size": "Large"
    },
    {
      "name": "Port of Algeciras",
      "city": "Algeciras",
      "country": "Spain",
      "iso2": "ES",
      "lat": 36.1408,
      "lng": -5.4526,
      "unlocode": "ESALG",
      "facilities": "Container, Bulk",
      "harbor_size": "Large"
    },
    {
      "name": "Port of Barcelona",
      "city": "Barcelona",
      "country": "Spain",
      "iso2": "ES",
      "lat": 41.3851,
      "lng": 2.1734,
      "unlocode": "ESBCN",
      "facilities": "Container, Cruise",
      "harbor_size": "Large"
    },
    {
      "name": "Port of Le Havre",
      "city": "Le Havre",
      "country": "France",
      "iso2": "FR",
      "lat": 49.4944,
      "lng": 0.1079,
      "unlocode": "FRLEH",
      "facilities": "Container, Bulk",
      "harbor_size": "Large"
    },
    {
      "name": "Port of Marseille-Fos",
      "city": "Marseille",
      "country": "France",
      "iso2": "FR",
      "lat": 43.2965,
      "lng": 5.3698,
      "unlocode": "FRMRS",
      "facilities": "Container, Bulk, Oil",
      "harbor_size": "Medium"
    },
    {
      "name": "Port of Felixstowe",
      "city": "Felixstowe",
      "country": "United Kingdom",
      "iso2": "GB",
      "lat": 51.9539,
      "lng": 1.3519,
      "unlocode": "GBFXT",
      "facilities": "Container",
      "harbor_size": "Large"
    },
    {
      "name": "Port of Southampton",
      "city": "Southampton",
      "country": "United Kingdom",
      "iso2": "GB",
      "lat": 50.9097,
      "lng": -1.4044,
      "unlocode": "GBSOU",
      "facilities": "Container, Cruise",
      "harbor_size": "Medium"
    },
    {
      "name": "Port of London",
      "city": "London",
      "country": "United Kingdom",
      "iso2": "GB",
      "lat": 51.5074,
      "lng": 0.0278,
      "unlocode": "GBLON",
      "facilities": "Bulk, Oil",
      "harbor_size": "Medium"
    },
    {
      "name": "Port of Liverpool",
      "city": "Liverpool",
      "country": "United Kingdom",
      "iso2": "GB",
      "lat": 53.4084,
      "lng": -2.9916,
      "unlocode": "GBLIV",
      "facilities": "Container, Bulk",
      "harbor_size": "Medium"
    },
    {
      "name": "Port of Genoa",
      "city": "Genoa",
      "country": "Italy",
      "iso2": "IT",
      "lat": 44.4056,
      "lng": 8.9463,
      "unlocode": "ITGOA",
      "facilities": "Container, Cruise",
      "harbor_size": "Large"
    },
    {
      "name": "Port of Trieste",
      "city": "Trieste",
      "country": "Italy",
      "iso2": "IT",
      "lat": 45.6495,
      "lng": 13.7768,
      "unlocode": "ITTRS",
      "facilities": "Container, Bulk, Oil",
      "harbor_size": "Medium"
    },
    {
      "name": "Port of Naples",
      "city": "Naples",
      "country": "Italy",
      "iso2": "IT",
      "lat": 40.8518,
      "lng": 14.2681,
      "unlocode": "ITNAP",
      "facilities": "Container, Cruise",
      "harbor_size": "Medium"
    },
    {
      "name": "Port of Piraeus",
      "city": "Piraeus",
      "country": "Greece",
      "iso2": "GR",
      "lat": 37.9479,
      "lng": 23.6403,
      "unlocode": "GRPIR",
      "facilities": "Container, Cruise",
      "harbor_size": "Large"
    },
    {
      "name": "Port of Thessaloniki",
      "city": "Thessaloniki",
      "country": "Greece",
      "iso2": "GR",
      "lat": 40.6401,
      "lng": 22.9444,
      "unlocode": "GRTHE",
      "facilities": "Container, Bulk",
      "harbor_size": "Medium"
    },
    {
      "name": "Port of Gdansk",
      "city": "Gdansk",
      "country": "Poland",
      "iso2": "PL",
      "lat": 54.352,
      "lng": 18.6466,
      "unlocode": "PLGDN",
      "facilities": "Container, Bulk, Oil",
      "harbor_size": "Medium"
    },
    {
      "name": "Port of St. Petersburg",
      "city": "St. Petersburg",
      "country": "Russia",
      "iso2": "RU",
      "lat": 59.9343,
      "lng": 30.3351,
      "unlocode": "RULED",
      "facilities": "Container, Bulk",
      "harbor_size": "Medium"
    },
    {
      "name": "Port of Novorossiysk",
      "city": "Novorossiysk",
      "country": "Russia",
      "iso2": "RU",
      "lat": 44.723,
      "lng": 37.7687,
      "unlocode": "RUNVS",
      "facilities": "Bulk, Oil",
      "harbor_size": "Medium"
    },
    {
      "name": "Port of Istanbul (Ambarli)",
      "city": "Istanbul",
      "country": "Turkey",
      "iso2": "TR",
      "lat": 40.9769,
      "lng": 28.7081,
      "unlocode": "TRAMB",
      "facilities": "Container",
      "harbor_size": "Medium"
    },
    {
      "name": "Port of Mersin",
      "city": "Mersin",
      "country": "Turkey",
      "iso2": "TR",
      "lat": 36.8121,
      "lng": 34.6415,
      "unlocode": "TRMER",
      "facilities": "Container, Bulk",
      "harbor_size": "Medium"
    },
    {
      "name": "Port of Gothenburg",
      "city": "Gothenburg",
      "country": "Sweden",
      "iso2": "SE",
      "lat": 57.7089,
      "lng": 11.9746,
      "unlocode": "SEGOT",
      "facilities": "Container, Auto",
      "harbor_size": "Medium"
    },
    {
      "name": "Port of Oslo",
      "city": "Oslo",
      "country": "Norway",
      "iso2": "NO",
      "lat": 59.9139,
      "lng": 10.7522,
      "unlocode": "NOOSL",
      "facilities": "Container, Cruise",
      "harbor_size": "Small"
    },
    {
      "name": "Port of Copenhagen",
      "city": "Copenhagen",
      "country": "Denmark",
      "iso2": "DK",
      "lat": 55.6761,
      "lng": 12.5683,
      "unlocode": "DKCPH",
      "facilities": "Container, Cruise",
      "harbor_size": "Small"
    },
    {
      "name": "Port of Helsinki",
      "city": "Helsinki",
      "country": "Finland",
      "iso2": "FI",
      "lat": 60.1699,
      "lng": 24.9384,
      "unlocode": "FIHEL",
      "facilities": "Container, Ferry",
      "harbor_size": "Small"
    },
    {
      "name": "Port of Lisbon",
      "city": "Lisbon",
      "country": "Portugal",
      "iso2": "PT",
      "lat": 38.7223,
      "lng": -9.1393,
      "unlocode": "PTLIS",
      "facilities": "Container, Cruise",
      "harbor_size": "Medium"
    },
    {
      "name": "Port of Sines",
      "city": "Sines",
      "country": "Portugal",
      "iso2": "PT",
      "lat": 37.9553,
      "lng": -8.8678,
      "unlocode": "PTSIE",
      "facilities": "Container, Bulk, Oil",
      "harbor_size": "Medium"
    },
    {
      "name": "Port of Los Angeles",
      "city": "Los Angeles",
      "country": "United States",
      "iso2": "US",
      "lat": 33.7365,
      "lng": -118.264,
      "unlocode": "USLAX",
      "facilities": "Container, Cruise",
      "harbor_size": "Large"
    },
    {
      "name": "Port of Long Beach",
      "city": "Long Beach",
      "country": "United States",
      "iso2": "US",
      "lat": 33.7701,
      "lng": -118.1937,
      "unlocode": "USLGB",
      "facilities": "Container",
      "harbor_size": "Large"
    },
    {
      "name": "Port of New York and New Jersey",
      "city": "New York",
      "country": "United States",
      "iso2": "US",
      "lat": 40.67,
      "lng": -74.04,
      "unlocode": "USNYC",
      "facilities": "Container, Cruise",
      "harbor_size": "Large"
    },
    {
      "name": "Port of Savannah",
      "city": "Savannah",
      "country": "United States",
      "iso2": "US",
      "lat": 32.0809,
      "lng": -81.0912,
      "unlocode": "USSAV",
      "facilities": "Container",
      "harbor_size": "Large"
    },
    {
      "name": "Port of Houston",
      "city": "Houston",
      "country": "United States",
      "iso2": "US",
      "lat": 29.7604,
      "lng": -95.3698,
      "unlocode": "USHOU",
      "facilities": "Container, Bulk, Oil",
      "harbor_size": "Large"
    },
    {
      "name": "Port of Seattle",
      "city": "Seattle",
      "country": "United States",
      "iso2": "US",
      "lat": 47.6062,
      "lng": -122.3321,
      "unlocode": "USSEA",
      "facilities": "Container, Cruise",
      "harbor_size": "Medium"
    },
    {
      "name": "Port of Oakland",
      "city": "Oakland",
      "country": "United States",
      "iso2": "US",
      "lat": 37.8044,
      "lng": -122.2712,
      "unlocode": "USOAK",
      "facilities": "Container",
      "harbor_size": "Medium"
    },
    {
      "name": "Port of Charleston",
      "city": "Charleston",
      "country": "United States",
      "iso2": "US",
      "lat": 32.7765,
      "lng": -79.9311,
      "unlocode": "USCHS",
      "facilities": "Container",
      "harbor_size": "Large"
    },
    {
      "name": "Port of Miami",
      "city": "Miami",
      "country": "United States",
      "iso2": "US",
      "lat": 25.7743,
      "lng": -80.1937,
      "unlocode": "USMIA",
      "facilities": "Container, Cruise",
      "harbor_size": "Large"
    },
    {
      "name": "Port of Baltimore",
      "city": "Baltimore",
      "country": "United States",
      "iso2": "US",
      "lat": 39.2904,
      "lng": -76.6122,
      "unlocode": "USBAL",
      "facilities": "Container, Bulk, Auto",
      "harbor_size": "Medium"
    },
    {
      "name": "Port of Vancouver",
      "city": "Vancouver",
      "country": "Canada",
      "iso2": "CA",
      "lat": 49.2827,
      "lng": -123.1207,
      "unlocode": "CAVAN",
      "facilities": "Container, Bulk, Cruise",
      "harbor_size": "Large"
    },
    {
      "name": "Port of Montreal",
      "city": "Montreal",
      "country": "Canada",
      "iso2": "CA",
      "lat": 45.5017,
      "lng": -73.5673,
      "unlocode": "CAMTR",
      "facilities": "Container, Bulk",
      "harbor_size": "Medium"
    },
    {
      "name": "Port of Halifax",
      "city": "Halifax",
      "country": "Canada",
      "iso2": "CA",
      "lat": 44.6488,
      "lng": -63.5752,
      "unlocode": "CAHAL",
      "facilities": "Container",
      "harbor_size": "Medium"
    },
    {
      "name": "Port of Prince Rupert",
      "city": "Prince Rupert",
      "country": "Canada",
      "iso2": "CA",
      "lat": 54.315,
      "lng": -130.3208,
      "unlocode": "CAPRR",
      "facilities": "Container, Bulk",
      "harbor_size": "Medium"
    },
    {
      "name": "Port of Manzanillo",
      "city": "Manzanillo",
      "country": "Mexico",
      "iso2": "MX",
      "lat": 19.0519,
      "lng": -104.3186,
      "unlocode": "MXZLO",
      "facilities": "Container",
      "harbor_size": "Medium"
    },
    {
      "name": "Port of Veracruz",
      "city": "Veracruz",
      "country": "Mexico",
      "iso2": "MX",
      "lat": 19.1738,
      "lng": -96.1342,
      "unlocode": "MXVER",
      "facilities": "Container, Bulk",
      "harbor_size": "Medium"
    },
    {
      "name": "Port of Lázaro Cárdenas",
      "city": "Lázaro Cárdenas",
      "country": "Mexico",
      "iso2": "MX",
      "lat": 17.9569,
      "lng": -102.2014,
      "unlocode": "MXLZC",
      "facilities": "Container, Bulk",
      "harbor_size": "Medium"
    },
    {
      "name": "Port of Santos",
      "city": "Santos",
      "country": "Brazil",
      "iso2": "BR",
      "lat": -23.9608,
      "lng": -46.3331,
      "unlocode": "BRSSZ",
      "facilities": "Container, Bulk",
      "harbor_size": "Large"
    },
    {
      "name": "Port of Rio de Janeiro",
      "city": "Rio de Janeiro",
      "country": "Brazil",
      "iso2": "BR",
      "lat": -22.9068,
      "lng": -43.1729,
      "unlocode": "BRRIO",
      "facilities": "Container, Bulk, Oil",
      "harbor_size": "Medium"
    },
    {
      "name": "Port of Paranaguá",
      "city": "Paranaguá",
      "country": "Brazil",
      "iso2": "BR",
      "lat": -25.5163,
      "lng": -48.5297,
      "unlocode": "BRPNG",
      "facilities": "Bulk, Container",
      "harbor_size": "Medium"
    },
    {
      "name": "Port of Buenos Aires",
      "city": "Buenos Aires",
      "country": "Argentina",
      "iso2": "AR",
      "lat": -34.6037,
      "lng": -58.3816,
      "unlocode": "ARBUE",
      "facilities": "Container, Bulk",
      "harbor_size": "Large"
    },
    {
      "name": "Port of Montevideo",
      "city": "Montevideo",
      "country": "Uruguay",
      "iso2": "UY",
      "lat": -34.9011,
      "lng": -56.1645,
      "unlocode": "UYMVD",
      "facilities": "Container, Bulk",
      "harbor_size": "Medium"
    },
    {
      "name": "Port of Valparaíso",
      "city": "Valparaíso",
      "country": "Chile",
      "iso2": "CL",
      "lat": -33.0472,
      "lng": -71.6127,
      "unlocode": "CLVAP",
      "facilities": "Container",
      "harbor_size": "Medium"
    },
    {
      "name": "Port of San Antonio",
      "city": "San Antonio",
      "country": "Chile",
      "iso2": "CL",
      "lat": -33.5928,
      "lng": -71.6127,
      "unlocode": "CLSAI",
      "facilities": "Container",
      "harbor_size": "Medium"
    },
    {
      "name": "Port of Callao",
      "city": "Callao",
      "country": "Peru",
      "iso2": "PE",
      "lat": -12.0464,
      "lng": -77.1181,
      "unlocode": "PECLL",
      "facilities": "Container, Bulk",
      "harbor_size": "Medium"
    },
    {
      "name": "Port of Guayaquil",
      "city": "Guayaquil",
      "country": "Ecuador",
      "iso2": "EC",
      "lat": -2.1891,
      "lng": -79.889,
      "unlocode": "ECGYE",
      "facilities": "Container, Bulk",
      "harbor_size": "Medium"
    },
    {
      "name": "Port of Cartagena",
      "city": "Cartagena",
      "country": "Colombia",
      "iso2": "CO",
      "lat": 10.391,
      "lng": -75.4794,
      "unlocode": "COCTG",
      "facilities": "Container, Cruise",
      "harbor_size": "Medium"
    },
    {
      "name": "Port of Buenaventura",
      "city": "Buenaventura",
      "country": "Colombia",
      "iso2": "CO",
      "lat": 3.8833,
      "lng": -77.0333,
      "unlocode": "COBUN",
      "facilities": "Container, Bulk",
      "harbor_size": "Medium"
    },
    {
      "name": "Port of Georgetown",
      "city": "Georgetown",
      "country": "Guyana",
      "iso2": "GY",
      "lat": 6.8013,
      "lng": -58.1551,
      "unlocode": "GYGEO",
      "facilities": "Container, Bulk",
      "harbor_size": "Small"
    },
    {
      "name": "Port of Paramaribo",
      "city": "Paramaribo",
      "country": "Suriname",
      "iso2": "SR",
      "lat": 5.852,
      "lng": -55.2038,
      "unlocode": "SRPBM",
      "facilities": "Container, Bulk",
      "harbor_size": "Small"
    },
    {
      "name": "Port of Jebel Ali",
      "city": "Dubai",
      "country": "UAE",
      "iso2": "AE",
      "lat": 25.0118,
      "lng": 55.0618,
      "unlocode": "AEJEA",
      "facilities": "Container, Bulk",
      "harbor_size": "Large"
    },
    {
      "name": "Port of Khalifa",
      "city": "Abu Dhabi",
      "country": "UAE",
      "iso2": "AE",
      "lat": 24.5269,
      "lng": 54.4369,
      "unlocode": "AEKHL",
      "facilities": "Container, Bulk",
      "harbor_size": "Large"
    },
    {
      "name": "Port of Dammam",
      "city": "Dammam",
      "country": "Saudi Arabia",
      "iso2": "SA",
      "lat": 26.3927,
      "lng": 50.208,
      "unlocode": "SADMM",
      "facilities": "Container, Bulk",
      "harbor_size": "Medium"
    },
    {
      "name": "Port of Jeddah",
      "city": "Jeddah",
      "country": "Saudi Arabia",
      "iso2": "SA",
      "lat": 21.2854,
      "lng": 39.2376,
      "unlocode": "SAJED",
      "facilities": "Container, Bulk, Cruise",
      "harbor_size": "Large"
    },
    {
      "name": "Port of Salalah",
      "city": "Salalah",
      "country": "Oman",
      "iso2": "OM",
      "lat": 16.9389,
      "lng": 54.005,
      "unlocode": "OMSLL",
      "facilities": "Container",
      "harbor_size": "Medium"
    },
    {
      "name": "Port of Sohar",
      "city": "Sohar",
      "country": "Oman",
      "iso2": "OM",
      "lat": 24.3475,
      "lng": 56.7519,
      "unlocode": "OMSOH",
      "facilities": "Container, Bulk",
      "harbor_size": "Medium"
    },
    {
      "name": "Port of Doha",
      "city": "Doha",
      "country": "Qatar",
      "iso2": "QA",
      "lat": 25.2854,
      "lng": 51.531,
      "unlocode": "QADOH",
      "facilities": "Container, Bulk",
      "harbor_size": "Medium"
    },
    {
      "name": "Port of Kuwait",
      "city": "Kuwait City",
      "country": "Kuwait",
      "iso2": "KW",
      "lat": 29.3759,
      "lng": 47.9774,
      "unlocode": "KWKWI",
      "facilities": "Container, Bulk",
      "harbor_size": "Medium"
    },
    {
      "name": "Port of Bahrain",
      "city": "Manama",
      "country": "Bahrain",
      "iso2": "BH",
      "lat": 26.2285,
      "lng": 50.586,
      "unlocode": "BHKBI",
      "facilities": "Container",
      "harbor_size": "Small"
    },
    {
      "name": "Port of Haifa",
      "city": "Haifa",
      "country": "Israel",
      "iso2": "IL",
      "lat": 32.8191,
      "lng": 34.9983,
      "unlocode": "ILHFA",
      "facilities": "Container, Bulk",
      "harbor_size": "Medium"
    },
    {
      "name": "Port of Ashdod",
      "city": "Ashdod",
      "country": "Israel",
      "iso2": "IL",
      "lat": 31.794,
      "lng": 34.6553,
      "unlocode": "ILASD",
      "facilities": "Container",
      "harbor_size": "Medium"
    },
    {
      "name": "Port of Bandar Abbas",
      "city": "Bandar Abbas",
      "country": "Iran",
      "iso2": "IR",
      "lat": 27.1865,
      "lng": 56.2808,
      "unlocode": "IRBND",
      "facilities": "Container, Bulk",
      "harbor_size": "Medium"
    },
    {
      "name": "Port of Basra",
      "city": "Basra",
      "country": "Iraq",
      "iso2": "IQ",
      "lat": 30.5081,
      "lng": 47.7835,
      "unlocode": "IQBSR",
      "facilities": "Bulk, Oil",
      "harbor_size": "Small"
    },
    {
      "name": "Port of Durban",
      "city": "Durban",
      "country": "South Africa",
      "iso2": "ZA",
      "lat": -29.8587,
      "lng": 31.0218,
      "unlocode": "ZADUR",
      "facilities": "Container, Bulk, Auto",
      "harbor_size": "Large"
    },
    {
      "name": "Port of Cape Town",
      "city": "Cape Town",
      "country": "South Africa",
      "iso2": "ZA",
      "lat": -33.9249,
      "lng": 18.4241,
      "unlocode": "ZACPT",
      "facilities": "Container, Bulk",
      "harbor_size": "Medium"
    },
    {
      "name": "Port of Port Elizabeth",
      "city": "Port Elizabeth",
      "country": "South Africa",
      "iso2": "ZA",
      "lat": -33.9608,
      "lng": 25.6022,
      "unlocode": "ZAPLZ",
      "facilities": "Container, Auto",
      "harbor_size": "Small"
    },
    {
      "name": "Port of Alexandria",
      "city": "Alexandria",
      "country": "Egypt",
      "iso2": "EG",
      "lat": 31.2001,
      "lng": 29.9187,
      "unlocode": "EGALY",
      "facilities": "Container, Bulk",
      "harbor_size": "Large"
    },
    {
      "name": "Port of Damietta",
      "city": "Damietta",
      "country": "Egypt",
      "iso2": "EG",
      "lat": 31.4175,
      "lng": 31.8144,
      "unlocode": "EGDAM",
      "facilities": "Container",
      "harbor_size": "Medium"
    },
    {
      "name": "Port of Suez",
      "city": "Suez",
      "country": "Egypt",
      "iso2": "EG",
      "lat": 29.9668,
      "lng": 32.5498,
      "unlocode": "EGSUZ",
      "facilities": "Bulk, Oil",
      "harbor_size": "Medium"
    },
    {
      "name": "Port of Casablanca",
      "city": "Casablanca",
      "country": "Morocco",
      "iso2": "MA",
      "lat": 33.6084,
      "lng": -7.6328,
      "unlocode": "MACAS",
      "facilities": "Container, Bulk",
      "harbor_size": "Medium"
    },
    {
      "name": "Port of Tangier Med",
      "city": "Tangier",
      "country": "Morocco",
      "iso2": "MA",
      "lat": 35.7595,
      "lng": -5.5033,
      "unlocode": "MAPTM",
      "facilities": "Container",
      "harbor_size": "Large"
    },
    {
      "name": "Port of Lagos (Apapa)",
      "city": "Lagos",
      "country": "Nigeria",
      "iso2": "NG",
      "lat": 6.4698,
      "lng": 3.3792,
      "unlocode": "NGLOS",
      "facilities": "Container, Bulk",
      "harbor_size": "Medium"
    },
    {
      "name": "Port of Mombasa",
      "city": "Mombasa",
      "country": "Kenya",
      "iso2": "KE",
      "lat": -4.0435,
      "lng": 39.6682,
      "unlocode": "KEMBA",
      "facilities": "Container, Bulk",
      "harbor_size": "Medium"
    },
    {
      "name": "Port of Dar es Salaam",
      "city": "Dar es Salaam",
      "country": "Tanzania",
      "iso2": "TZ",
      "lat": -6.816,
      "lng": 39.2803,
      "unlocode": "TZDAR",
      "facilities": "Container, Bulk",
      "harbor_size": "Medium"
    },
    {
      "name": "Port of Abidjan",
      "city": "Abidjan",
      "country": "Ivory Coast",
      "iso2": "CI",
      "lat": 5.36,
      "lng": -4.0083,
      "unlocode": "CIABJ",
      "facilities": "Container, Bulk",
      "harbor_size": "Medium"
    },
    {
      "name": "Port of Tema",
      "city": "Tema",
      "country": "Ghana",
      "iso2": "GH",
      "lat": 5.6698,
      "lng": 0.0167,
      "unlocode": "GHTEM",
      "facilities": "Container, Bulk",
      "harbor_size": "Small"
    },
    {
      "name": "Port of Dakar",
      "city": "Dakar",
      "country": "Senegal",
      "iso2": "SN",
      "lat": 14.6928,
      "lng": -17.4467,
      "unlocode": "SNDKR",
      "facilities": "Container, Bulk",
      "harbor_size": "Small"
    },
    {
      "name": "Port of Luanda",
      "city": "Luanda",
      "country": "Angola",
      "iso2": "AO",
      "lat": -8.8383,
      "lng": 13.2344,
      "unlocode": "AOLAD",
      "facilities": "Container, Oil",
      "harbor_size": "Small"
    },
    {
      "name": "Port of Maputo",
      "city": "Maputo",
      "country": "Mozambique",
      "iso2": "MZ",
      "lat": -25.9655,
      "lng": 32.5832,
      "unlocode": "MZMPM",
      "facilities": "Container, Bulk",
      "harbor_size": "Small"
    },
    {
      "name": "Port of Walvis Bay",
      "city": "Walvis Bay",
      "country": "Namibia",
      "iso2": "NA",
      "lat": -22.9576,
      "lng": 14.5053,
      "unlocode": "NAWVB",
      "facilities": "Container, Bulk",
      "harbor_size": "Small"
    }
  ],
  "byCountry": {
    "CN": 6,
    "SG": 1,
    "KR": 1,
    "HK": 1,
    "TW": 1,
    "JP": 5,
    "PH": 1,
    "MY": 2,
    "TH": 1,
    "ID": 2,
    "VN": 2,
    "IN": 3,
    "LK": 1,
    "PK": 1,
    "BD": 1,
    "AU": 3,
    "NZ": 1,
    "NL": 1,
    "BE": 1,
    "DE": 2,
    "ES": 3,
    "FR": 2,
    "GB": 4,
    "IT": 3,
    "GR": 2,
    "PL": 1,
    "RU": 2,
    "TR": 2,
    "SE": 1,
    "NO": 1,
    "DK": 1,
    "FI": 1,
    "PT": 2,
    "US": 10,
    "CA": 4,
    "MX": 3,
    "BR": 3,
    "AR": 1,
    "UY": 1,
    "CL": 2,
    "PE": 1,
    "EC": 1,
    "CO": 2,
    "GY": 1,
    "SR": 1,
    "AE": 2,
    "SA": 2,
    "OM": 2,
    "QA": 1,
    "KW": 1,
    "BH": 1,
    "IL": 2,
    "IR": 1,
    "IQ": 1,
    "ZA": 3,
    "EG": 3,
    "MA": 2,
    "NG": 1,
    "KE": 1,
    "TZ": 1,
    "CI": 1,
    "GH": 1,
    "SN": 1,
    "AO": 1,
    "MZ": 1,
    "NA": 1
  },
  "stats": {
    "bySize": {
      "Large": 49,
      "Medium": 60,
      "Small": 13
    },
    "countries_covered": 66
  }
}